{
    "features": [
        {
            "type": "Feature",
            "properties": {
                "title": "Hedwig Dohm Gedenktafel"
            },
            "geometry": {
                "type": "Point",
                "coordinates": [
                    13.39107,
                    52.50225
                ]
            }
        },
        {
            "type": "Feature",
            "properties": {
                "title": "Victoria Versicherung Kreuzberg"
            },
            "geometry": {
                "type": "Point",
                "coordinates": [
                    13.39625,
                    52.50373
                ]
            }
        },
        {
            "type": "Feature",
            "properties": {
                "title": "KMA Antenne"
            },
            "geometry": {
                "type": "Point",
                "coordinates": [
                    13.39179,
                    52.50062
                ]
            }
        },
        {
            "type": "Feature",
            "properties": {
                "title": "Die Globale e.V."
            },
            "geometry": {
                "type": "Point",
                "coordinates": [
                    13.39248,
                    52.49974
                ]
            }
        },
        {
            "type": "Feature",
            "properties": {
                "title": "Café MaDaMe"
            },
            "geometry": {
                "type": "Point",
                "coordinates": [
                    13.39248,
                    52.49974
                ]
            }
        },
        {
            "type": "Feature",
            "properties": {
                "title": "Vielfalt E.V."
            },
            "geometry": {
                "type": "Point",
                "coordinates": [
                    13.39274,
                    52.4996
                ]
            }
        },
        {
            "type": "Feature",
            "properties": {
                "title": "Donut Wedge with Two Balls "
            },
            "geometry": {
                "type": "Point",
                "coordinates": [
                    13.39144,
                    52.50353
                ]
            }
        },
        {
            "type": "Feature",
            "properties": {
                "title": "Quartiermanagement am Mehringplaz - Kunstwelt .v."
            },
            "geometry": {
                "type": "Point",
                "coordinates": [
                    13.3918,
                    52.50006
                ]
            }
        },
        {
            "type": "Feature",
            "properties": {
                "title": "Ela Kagel - Supermarkt"
            },
            "geometry": {
                "type": "Point",
                "coordinates": [
                    13.39265,
                    52.4996
                ]
            }
        },
        {
            "type": "Feature",
            "properties": {
                "title": "Supermarkt"
            },
            "geometry": {
                "type": "Point",
                "coordinates": [
                    13.39265,
                    52.4996
                ]
            }
        },
        {
            "type": "Feature",
            "properties": {
                "title": "TAZ Neubau"
            },
            "geometry": {
                "type": "Point",
                "coordinates": [
                    13.39135,
                    52.50315
                ]
            }
        },
        {
            "type": "Feature",
            "properties": {
                "title": "Hedwig Dohm Gedenktafel"
            },
            "geometry": {
                "type": "Point",
                "coordinates": [
                    13.39107,
                    52.50225
                ]
            }
        },
        {
            "type": "Feature",
            "properties": {
                "title": "Victoria Versicherung Kreuzberg"
            },
            "geometry": {
                "type": "Point",
                "coordinates": [
                    13.39625,
                    52.50373
                ]
            }
        },
        {
            "type": "Feature",
            "properties": {
                "title": "KMA Antenne"
            },
            "geometry": {
                "type": "Point",
                "coordinates": [
                    13.39179,
                    52.50062
                ]
            }
        },
        {
            "type": "Feature",
            "properties": {
                "title": "Die Globale e.V."
            },
            "geometry": {
                "type": "Point",
                "coordinates": [
                    13.39248,
                    52.49974
                ]
            }
        },
        {
            "type": "Feature",
            "properties": {
                "title": "Café MaDaMe"
            },
            "geometry": {
                "type": "Point",
                "coordinates": [
                    13.39248,
                    52.49974
                ]
            }
        },
        {
            "type": "Feature",
            "properties": {
                "title": "Vielfalt E.V."
            },
            "geometry": {
                "type": "Point",
                "coordinates": [
                    13.39274,
                    52.4996
                ]
            }
        },
        {
            "type": "Feature",
            "properties": {
                "title": "Donut Wedge with Two Balls "
            },
            "geometry": {
                "type": "Point",
                "coordinates": [
                    13.39144,
                    52.50353
                ]
            }
        },
        {
            "type": "Feature",
            "properties": {
                "title": "Quartiermanagement am Mehringplaz - Kunstwelt .v."
            },
            "geometry": {
                "type": "Point",
                "coordinates": [
                    13.3918,
                    52.50006
                ]
            }
        },
        {
            "type": "Feature",
            "properties": {
                "title": "Ela Kagel - Supermarkt"
            },
            "geometry": {
                "type": "Point",
                "coordinates": [
                    13.39265,
                    52.4996
                ]
            }
        },
        {
            "type": "Feature",
            "properties": {
                "title": "Supermarkt"
            },
            "geometry": {
                "type": "Point",
                "coordinates": [
                    13.39265,
                    52.4996
                ]
            }
        }
    ],
    "type": "FeatureCollection"
}