{
    "features": [
        {
            "type": "Feature",
            "properties": {
                "title": "Die Globale e.V.",
                "start_date": "",
                "end_date": ""
            },
            "geometry": {
                "type": "Point",
                "coordinates": [
                    13.39248,
                    52.49974
                ]
            }
        },
        {
            "type": "Feature",
            "properties": {
                "title": "Café MaDaMe",
                "start_date": "",
                "end_date": ""
            },
            "geometry": {
                "type": "Point",
                "coordinates": [
                    13.39248,
                    52.49974
                ]
            }
        },
        {
            "type": "Feature",
            "properties": {
                "title": "Vielfalt E.V.",
                "start_date": "",
                "end_date": ""
            },
            "geometry": {
                "type": "Point",
                "coordinates": [
                    13.39274,
                    52.4996
                ]
            }
        },
        {
            "type": "Feature",
            "properties": {
                "title": "Donut Wedge with Two Balls ",
                "start_date": "",
                "end_date": "2010-09-26T06:00:00.000-07:00"
            },
            "geometry": {
                "type": "Point",
                "coordinates": [
                    13.39144,
                    52.50353
                ]
            }
        },
        {
            "type": "Feature",
            "properties": {
                "title": "Quartiermanagement am Mehringplaz - Kunstwelt .v.",
                "start_date": "1998-09-26T01:00:00.000-07:00",
                "end_date": ""
            },
            "geometry": {
                "type": "Point",
                "coordinates": [
                    13.3918,
                    52.50006
                ]
            }
        },
        {
            "type": "Feature",
            "properties": {
                "title": "Ela Kagel - Supermarkt",
                "start_date": "",
                "end_date": ""
            },
            "geometry": {
                "type": "Point",
                "coordinates": [
                    13.39265,
                    52.4996
                ]
            }
        },
        {
            "type": "Feature",
            "properties": {
                "title": "Supermarkt",
                "start_date": "",
                "end_date": ""
            },
            "geometry": {
                "type": "Point",
                "coordinates": [
                    13.39265,
                    52.4996
                ]
            }
        },
        {
            "type": "Feature",
            "properties": {
                "title": "TAZ Neubau",
                "start_date": "",
                "end_date": "2019-09-24T16:00:00.000-07:00"
            },
            "geometry": {
                "type": "Point",
                "coordinates": [
                    13.39135,
                    52.50315
                ]
            }
        },
        {
            "type": "Feature",
            "properties": {
                "title": "Hedwig Dohm Gedenktafel",
                "start_date": "",
                "end_date": ""
            },
            "geometry": {
                "type": "Point",
                "coordinates": [
                    13.39107,
                    52.50225
                ]
            }
        },
        {
            "type": "Feature",
            "properties": {
                "title": "Victoria Versicherung Kreuzberg",
                "start_date": "",
                "end_date": "1913-01-01T08:00:00.000-08:00"
            },
            "geometry": {
                "type": "Point",
                "coordinates": [
                    13.39625,
                    52.50373
                ]
            }
        },
        {
            "type": "Feature",
            "properties": {
                "title": "KMA Antenne",
                "start_date": "2019-09-29T16:00:00.000-07:00",
                "end_date": ""
            },
            "geometry": {
                "type": "Point",
                "coordinates": [
                    13.39179,
                    52.50062
                ]
            }
        },
        {
            "type": "Feature",
            "properties": {
                "title": "Die Globale e.V.",
                "start_date": "",
                "end_date": ""
            },
            "geometry": {
                "type": "Point",
                "coordinates": [
                    13.39248,
                    52.49974
                ]
            }
        },
        {
            "type": "Feature",
            "properties": {
                "title": "Café MaDaMe",
                "start_date": "",
                "end_date": ""
            },
            "geometry": {
                "type": "Point",
                "coordinates": [
                    13.39248,
                    52.49974
                ]
            }
        },
        {
            "type": "Feature",
            "properties": {
                "title": "Vielfalt E.V.",
                "start_date": "",
                "end_date": ""
            },
            "geometry": {
                "type": "Point",
                "coordinates": [
                    13.39274,
                    52.4996
                ]
            }
        },
        {
            "type": "Feature",
            "properties": {
                "title": "Donut Wedge with Two Balls ",
                "start_date": "",
                "end_date": "2010-09-26T06:00:00.000-07:00"
            },
            "geometry": {
                "type": "Point",
                "coordinates": [
                    13.39144,
                    52.50353
                ]
            }
        },
        {
            "type": "Feature",
            "properties": {
                "title": "Quartiermanagement am Mehringplaz - Kunstwelt .v.",
                "start_date": "1998-09-26T01:00:00.000-07:00",
                "end_date": ""
            },
            "geometry": {
                "type": "Point",
                "coordinates": [
                    13.3918,
                    52.50006
                ]
            }
        },
        {
            "type": "Feature",
            "properties": {
                "title": "Ela Kagel - Supermarkt",
                "start_date": "",
                "end_date": ""
            },
            "geometry": {
                "type": "Point",
                "coordinates": [
                    13.39265,
                    52.4996
                ]
            }
        },
        {
            "type": "Feature",
            "properties": {
                "title": "Supermarkt",
                "start_date": "",
                "end_date": ""
            },
            "geometry": {
                "type": "Point",
                "coordinates": [
                    13.39265,
                    52.4996
                ]
            }
        },
        {
            "type": "Feature",
            "properties": {
                "title": "TAZ Neubau",
                "start_date": "",
                "end_date": "2019-09-24T16:00:00.000-07:00"
            },
            "geometry": {
                "type": "Point",
                "coordinates": [
                    13.39135,
                    52.50315
                ]
            }
        },
        {
            "type": "Feature",
            "properties": {
                "title": "Hedwig Dohm Gedenktafel",
                "start_date": "",
                "end_date": ""
            },
            "geometry": {
                "type": "Point",
                "coordinates": [
                    13.39107,
                    52.50225
                ]
            }
        },
        {
            "type": "Feature",
            "properties": {
                "title": "Victoria Versicherung Kreuzberg",
                "start_date": "",
                "end_date": "1913-01-01T08:00:00.000-08:00"
            },
            "geometry": {
                "type": "Point",
                "coordinates": [
                    13.39625,
                    52.50373
                ]
            }
        }
    ],
    "type": "FeatureCollection"
}